{
  "prefecture": "aichi",
  "city": "名古屋市",
  "wards": [
    {
      "ward": "千種区",
      "wardCode": "23101",
      "chochou": [
        { "name": "今池一丁目", "lat": 35.1672, "lng": 136.9352 },
        { "name": "今池二丁目", "lat": 35.1680, "lng": 136.9370 },
        { "name": "覚王山通", "lat": 35.1665, "lng": 136.9490 },
        { "name": "池下一丁目", "lat": 35.1638, "lng": 136.9440 },
        { "name": "池下二丁目", "lat": 35.1650, "lng": 136.9458 },
        { "name": "本山町", "lat": 35.1620, "lng": 136.9555 },
        { "name": "星ヶ丘一丁目", "lat": 35.1610, "lng": 136.9680 },
        { "name": "星ヶ丘二丁目", "lat": 35.1600, "lng": 136.9700 },
        { "name": "東山通", "lat": 35.1570, "lng": 136.9610 },
        { "name": "千種一丁目", "lat": 35.1720, "lng": 136.9300 },
        { "name": "千種二丁目", "lat": 35.1735, "lng": 136.9310 },
        { "name": "内山一丁目", "lat": 35.1695, "lng": 136.9330 },
        { "name": "仲田一丁目", "lat": 35.1710, "lng": 136.9360 },
        { "name": "末盛通", "lat": 35.1645, "lng": 136.9530 }
      ]
    },
    {
      "ward": "東区",
      "wardCode": "23102",
      "chochou": [
        { "name": "東桜一丁目", "lat": 35.1735, "lng": 136.9135 },
        { "name": "東桜二丁目", "lat": 35.1748, "lng": 136.9150 },
        { "name": "泉一丁目", "lat": 35.1770, "lng": 136.9095 },
        { "name": "泉二丁目", "lat": 35.1782, "lng": 136.9110 },
        { "name": "泉三丁目", "lat": 35.1795, "lng": 136.9130 },
        { "name": "葵一丁目", "lat": 35.1755, "lng": 136.9230 },
        { "name": "葵二丁目", "lat": 35.1760, "lng": 136.9260 },
        { "name": "葵三丁目", "lat": 35.1768, "lng": 136.9280 },
        { "name": "筒井一丁目", "lat": 35.1740, "lng": 136.9290 },
        { "name": "筒井二丁目", "lat": 35.1750, "lng": 136.9310 },
        { "name": "筒井三丁目", "lat": 35.1762, "lng": 136.9325 },
        { "name": "代官町", "lat": 35.1800, "lng": 136.9155 },
        { "name": "白壁一丁目", "lat": 35.1815, "lng": 136.9190 },
        { "name": "主税町", "lat": 35.1825, "lng": 136.9175 }
      ]
    },
    {
      "ward": "北区",
      "wardCode": "23103",
      "chochou": [
        { "name": "大曽根一丁目", "lat": 35.1918, "lng": 136.9280 },
        { "name": "大曽根二丁目", "lat": 35.1930, "lng": 136.9295 },
        { "name": "大曽根三丁目", "lat": 35.1940, "lng": 136.9310 },
        { "name": "黒川本通一丁目", "lat": 35.1905, "lng": 136.9050 },
        { "name": "黒川本通二丁目", "lat": 35.1920, "lng": 136.9065 },
        { "name": "志賀本通一丁目", "lat": 35.1960, "lng": 136.9095 },
        { "name": "志賀本通二丁目", "lat": 35.1975, "lng": 136.9110 },
        { "name": "清水一丁目", "lat": 35.1850, "lng": 136.9115 },
        { "name": "清水二丁目", "lat": 35.1865, "lng": 136.9130 },
        { "name": "平安一丁目", "lat": 35.1890, "lng": 136.9130 },
        { "name": "城北町", "lat": 35.1935, "lng": 136.9070 },
        { "name": "金城町一丁目", "lat": 35.1880, "lng": 136.9045 }
      ]
    },
    {
      "ward": "西区",
      "wardCode": "23104",
      "chochou": [
        { "name": "浄心一丁目", "lat": 35.1810, "lng": 136.8930 },
        { "name": "浄心二丁目", "lat": 35.1825, "lng": 136.8915 },
        { "name": "上小田井一丁目", "lat": 35.2010, "lng": 136.8730 },
        { "name": "上小田井二丁目", "lat": 35.2025, "lng": 136.8745 },
        { "name": "庄内通一丁目", "lat": 35.1900, "lng": 136.8870 },
        { "name": "庄内通二丁目", "lat": 35.1915, "lng": 136.8885 },
        { "name": "城西一丁目", "lat": 35.1785, "lng": 136.8960 },
        { "name": "城西二丁目", "lat": 35.1795, "lng": 136.8945 },
        { "name": "則武新町一丁目", "lat": 35.1820, "lng": 136.8835 },
        { "name": "則武新町二丁目", "lat": 35.1835, "lng": 136.8820 },
        { "name": "菊井一丁目", "lat": 35.1760, "lng": 136.8920 },
        { "name": "名駅南五丁目", "lat": 35.1700, "lng": 136.8860 },
        { "name": "天塚町", "lat": 35.1930, "lng": 136.8810 }
      ]
    },
    {
      "ward": "中村区",
      "wardCode": "23105",
      "chochou": [
        { "name": "名駅一丁目", "lat": 35.1710, "lng": 136.8830 },
        { "name": "名駅二丁目", "lat": 35.1720, "lng": 136.8810 },
        { "name": "名駅三丁目", "lat": 35.1695, "lng": 136.8825 },
        { "name": "名駅四丁目", "lat": 35.1700, "lng": 136.8850 },
        { "name": "名駅五丁目", "lat": 35.1685, "lng": 136.8805 },
        { "name": "太閤一丁目", "lat": 35.1680, "lng": 136.8770 },
        { "name": "太閤二丁目", "lat": 35.1665, "lng": 136.8755 },
        { "name": "太閤三丁目", "lat": 35.1650, "lng": 136.8740 },
        { "name": "岩塚町", "lat": 35.1580, "lng": 136.8580 },
        { "name": "中村町", "lat": 35.1605, "lng": 136.8650 },
        { "name": "椿町", "lat": 35.1740, "lng": 136.8790 },
        { "name": "竹橋町", "lat": 35.1660, "lng": 136.8790 },
        { "name": "笹島町", "lat": 35.1680, "lng": 136.8870 },
        { "name": "則武一丁目", "lat": 35.1790, "lng": 136.8810 }
      ]
    },
    {
      "ward": "中区",
      "wardCode": "23106",
      "chochou": [
        { "name": "栄一丁目", "lat": 35.1709, "lng": 136.9066 },
        { "name": "栄二丁目", "lat": 35.1695, "lng": 136.9040 },
        { "name": "栄三丁目", "lat": 35.1680, "lng": 136.9070 },
        { "name": "栄四丁目", "lat": 35.1715, "lng": 136.9100 },
        { "name": "栄五丁目", "lat": 35.1700, "lng": 136.9110 },
        { "name": "大須一丁目", "lat": 35.1610, "lng": 136.9010 },
        { "name": "大須二丁目", "lat": 35.1595, "lng": 136.9030 },
        { "name": "大須三丁目", "lat": 35.1600, "lng": 136.9060 },
        { "name": "大須四丁目", "lat": 35.1615, "lng": 136.9080 },
        { "name": "丸の内一丁目", "lat": 35.1755, "lng": 136.9000 },
        { "name": "丸の内二丁目", "lat": 35.1770, "lng": 136.9020 },
        { "name": "丸の内三丁目", "lat": 35.1785, "lng": 136.9045 },
        { "name": "錦一丁目", "lat": 35.1730, "lng": 136.8990 },
        { "name": "錦二丁目", "lat": 35.1735, "lng": 136.9020 },
        { "name": "錦三丁目", "lat": 35.1725, "lng": 136.9060 }
      ]
    },
    {
      "ward": "昭和区",
      "wardCode": "23107",
      "chochou": [
        { "name": "御器所一丁目", "lat": 35.1535, "lng": 136.9305 },
        { "name": "御器所二丁目", "lat": 35.1545, "lng": 136.9320 },
        { "name": "御器所三丁目", "lat": 35.1520, "lng": 136.9290 },
        { "name": "桜山町", "lat": 35.1470, "lng": 136.9290 },
        { "name": "八事本町", "lat": 35.1405, "lng": 136.9520 },
        { "name": "八事富士見", "lat": 35.1395, "lng": 136.9540 },
        { "name": "滝川町", "lat": 35.1560, "lng": 136.9350 },
        { "name": "鶴舞一丁目", "lat": 35.1590, "lng": 136.9230 },
        { "name": "鶴舞二丁目", "lat": 35.1580, "lng": 136.9250 },
        { "name": "川名本町", "lat": 35.1480, "lng": 136.9380 },
        { "name": "阿由知通一丁目", "lat": 35.1510, "lng": 136.9300 },
        { "name": "石仏町", "lat": 35.1445, "lng": 136.9440 }
      ]
    },
    {
      "ward": "瑞穂区",
      "wardCode": "23108",
      "chochou": [
        { "name": "瑞穂通一丁目", "lat": 35.1385, "lng": 136.9310 },
        { "name": "瑞穂通二丁目", "lat": 35.1370, "lng": 136.9295 },
        { "name": "堀田一丁目", "lat": 35.1280, "lng": 136.9280 },
        { "name": "堀田二丁目", "lat": 35.1265, "lng": 136.9265 },
        { "name": "堀田三丁目", "lat": 35.1250, "lng": 136.9250 },
        { "name": "新瑞橋一丁目", "lat": 35.1210, "lng": 136.9350 },
        { "name": "新瑞橋二丁目", "lat": 35.1195, "lng": 136.9365 },
        { "name": "弥富町", "lat": 35.1330, "lng": 136.9360 },
        { "name": "田辺通一丁目", "lat": 35.1355, "lng": 136.9330 },
        { "name": "豊岡通一丁目", "lat": 35.1400, "lng": 136.9290 },
        { "name": "汐路町", "lat": 35.1420, "lng": 136.9310 },
        { "name": "妙音通", "lat": 35.1230, "lng": 136.9300 }
      ]
    },
    {
      "ward": "熱田区",
      "wardCode": "23109",
      "chochou": [
        { "name": "金山町一丁目", "lat": 35.1555, "lng": 136.9005 },
        { "name": "金山町二丁目", "lat": 35.1545, "lng": 136.8990 },
        { "name": "神宮前一丁目", "lat": 35.1280, "lng": 136.9085 },
        { "name": "神宮前二丁目", "lat": 35.1270, "lng": 136.9100 },
        { "name": "西高蔵一丁目", "lat": 35.1310, "lng": 136.9040 },
        { "name": "西高蔵二丁目", "lat": 35.1325, "lng": 136.9055 },
        { "name": "熱田西町", "lat": 35.1290, "lng": 136.9020 },
        { "name": "六番一丁目", "lat": 35.1345, "lng": 136.9070 },
        { "name": "六番二丁目", "lat": 35.1360, "lng": 136.9085 },
        { "name": "沢上町", "lat": 35.1500, "lng": 136.8970 },
        { "name": "大宝一丁目", "lat": 35.1340, "lng": 136.8990 },
        { "name": "伝馬一丁目", "lat": 35.1265, "lng": 136.9070 }
      ]
    },
    {
      "ward": "中川区",
      "wardCode": "23110",
      "chochou": [
        { "name": "高畑一丁目", "lat": 35.1530, "lng": 136.8560 },
        { "name": "高畑二丁目", "lat": 35.1545, "lng": 136.8575 },
        { "name": "高畑三丁目", "lat": 35.1515, "lng": 136.8545 },
        { "name": "尾頭橋一丁目", "lat": 35.1505, "lng": 136.8870 },
        { "name": "尾頭橋二丁目", "lat": 35.1490, "lng": 136.8855 },
        { "name": "八熊一丁目", "lat": 35.1460, "lng": 136.8840 },
        { "name": "松葉町一丁目", "lat": 35.1520, "lng": 136.8650 },
        { "name": "山王一丁目", "lat": 35.1570, "lng": 136.8850 },
        { "name": "中川運河町", "lat": 35.1430, "lng": 136.8750 },
        { "name": "荒子町", "lat": 35.1490, "lng": 136.8530 },
        { "name": "篠原橋通", "lat": 35.1400, "lng": 136.8680 },
        { "name": "露橋一丁目", "lat": 35.1555, "lng": 136.8820 }
      ]
    },
    {
      "ward": "港区",
      "wardCode": "23111",
      "chochou": [
        { "name": "名古屋港一丁目", "lat": 35.0870, "lng": 136.8870 },
        { "name": "名古屋港二丁目", "lat": 35.0855, "lng": 136.8855 },
        { "name": "築地口一丁目", "lat": 35.1020, "lng": 136.8830 },
        { "name": "築地口二丁目", "lat": 35.1005, "lng": 136.8815 },
        { "name": "金城ふ頭一丁目", "lat": 35.0530, "lng": 136.8450 },
        { "name": "金城ふ頭二丁目", "lat": 35.0540, "lng": 136.8470 },
        { "name": "港楽一丁目", "lat": 35.1080, "lng": 136.8790 },
        { "name": "港楽二丁目", "lat": 35.1095, "lng": 136.8805 },
        { "name": "当知一丁目", "lat": 35.1030, "lng": 136.8650 },
        { "name": "稲永一丁目", "lat": 35.0950, "lng": 136.8640 },
        { "name": "入船一丁目", "lat": 35.0985, "lng": 136.8780 },
        { "name": "港北町", "lat": 35.1150, "lng": 136.8720 }
      ]
    },
    {
      "ward": "南区",
      "wardCode": "23112",
      "chochou": [
        { "name": "大同町一丁目", "lat": 35.0870, "lng": 136.9250 },
        { "name": "大同町二丁目", "lat": 35.0860, "lng": 136.9265 },
        { "name": "笠寺町", "lat": 35.1020, "lng": 136.9310 },
        { "name": "道徳一丁目", "lat": 35.1180, "lng": 136.9100 },
        { "name": "道徳二丁目", "lat": 35.1170, "lng": 136.9115 },
        { "name": "桜台一丁目", "lat": 35.1060, "lng": 136.9330 },
        { "name": "桜台二丁目", "lat": 35.1050, "lng": 136.9345 },
        { "name": "呼続一丁目", "lat": 35.1120, "lng": 136.9200 },
        { "name": "呼続二丁目", "lat": 35.1105, "lng": 136.9215 },
        { "name": "内田橋一丁目", "lat": 35.1190, "lng": 136.9090 },
        { "name": "豊田一丁目", "lat": 35.1140, "lng": 136.9150 },
        { "name": "鶴里町", "lat": 35.1000, "lng": 136.9380 }
      ]
    },
    {
      "ward": "守山区",
      "wardCode": "23113",
      "chochou": [
        { "name": "小幡一丁目", "lat": 35.2000, "lng": 136.9580 },
        { "name": "小幡二丁目", "lat": 35.2015, "lng": 136.9595 },
        { "name": "小幡三丁目", "lat": 35.2030, "lng": 136.9610 },
        { "name": "大森一丁目", "lat": 35.2095, "lng": 136.9700 },
        { "name": "大森二丁目", "lat": 35.2110, "lng": 136.9715 },
        { "name": "守山一丁目", "lat": 35.1970, "lng": 136.9530 },
        { "name": "守山二丁目", "lat": 35.1985, "lng": 136.9545 },
        { "name": "瀬古一丁目", "lat": 35.2080, "lng": 136.9460 },
        { "name": "新守山", "lat": 35.2050, "lng": 136.9490 },
        { "name": "金屋一丁目", "lat": 35.1960, "lng": 136.9610 },
        { "name": "志段味", "lat": 35.2200, "lng": 136.9800 },
        { "name": "吉根町", "lat": 35.2150, "lng": 136.9750 }
      ]
    },
    {
      "ward": "緑区",
      "wardCode": "23114",
      "chochou": [
        { "name": "徳重一丁目", "lat": 35.0930, "lng": 136.9660 },
        { "name": "徳重二丁目", "lat": 35.0945, "lng": 136.9675 },
        { "name": "鳴海町", "lat": 35.0990, "lng": 136.9530 },
        { "name": "有松町", "lat": 35.0840, "lng": 136.9710 },
        { "name": "有松三丁目", "lat": 35.0855, "lng": 136.9725 },
        { "name": "大高町", "lat": 35.0760, "lng": 136.9390 },
        { "name": "滝ノ水一丁目", "lat": 35.0970, "lng": 136.9600 },
        { "name": "滝ノ水二丁目", "lat": 35.0985, "lng": 136.9615 },
        { "name": "相原郷一丁目", "lat": 35.1010, "lng": 136.9550 },
        { "name": "鹿山一丁目", "lat": 35.0910, "lng": 136.9640 },
        { "name": "桶狭間", "lat": 35.0780, "lng": 136.9690 },
        { "name": "神の倉一丁目", "lat": 35.0890, "lng": 136.9730 },
        { "name": "篠の風一丁目", "lat": 35.0960, "lng": 136.9700 }
      ]
    },
    {
      "ward": "名東区",
      "wardCode": "23115",
      "chochou": [
        { "name": "藤が丘一丁目", "lat": 35.1730, "lng": 136.9850 },
        { "name": "藤が丘二丁目", "lat": 35.1745, "lng": 136.9865 },
        { "name": "一社一丁目", "lat": 35.1680, "lng": 136.9770 },
        { "name": "一社二丁目", "lat": 35.1695, "lng": 136.9785 },
        { "name": "本郷一丁目", "lat": 35.1640, "lng": 136.9740 },
        { "name": "本郷二丁目", "lat": 35.1655, "lng": 136.9755 },
        { "name": "上社一丁目", "lat": 35.1710, "lng": 136.9810 },
        { "name": "上社二丁目", "lat": 35.1720, "lng": 136.9830 },
        { "name": "社台一丁目", "lat": 35.1750, "lng": 136.9800 },
        { "name": "高針台一丁目", "lat": 35.1560, "lng": 136.9790 },
        { "name": "高針台二丁目", "lat": 35.1575, "lng": 136.9805 },
        { "name": "極楽一丁目", "lat": 35.1530, "lng": 136.9820 },
        { "name": "梅森坂一丁目", "lat": 35.1500, "lng": 136.9780 }
      ]
    },
    {
      "ward": "天白区",
      "wardCode": "23116",
      "chochou": [
        { "name": "植田一丁目", "lat": 35.1380, "lng": 136.9620 },
        { "name": "植田二丁目", "lat": 35.1395, "lng": 136.9635 },
        { "name": "植田三丁目", "lat": 35.1370, "lng": 136.9650 },
        { "name": "原一丁目", "lat": 35.1280, "lng": 136.9680 },
        { "name": "原二丁目", "lat": 35.1295, "lng": 136.9695 },
        { "name": "平針一丁目", "lat": 35.1200, "lng": 136.9700 },
        { "name": "平針二丁目", "lat": 35.1215, "lng": 136.9715 },
        { "name": "平針三丁目", "lat": 35.1190, "lng": 136.9730 },
        { "name": "塩釜口一丁目", "lat": 35.1350, "lng": 136.9590 },
        { "name": "塩釜口二丁目", "lat": 35.1365, "lng": 136.9575 },
        { "name": "八事山", "lat": 35.1420, "lng": 136.9560 },
        { "name": "島田一丁目", "lat": 35.1240, "lng": 136.9610 },
        { "name": "野並一丁目", "lat": 35.1130, "lng": 136.9550 }
      ]
    }
  ]
}
